id,body_style,color,transmission,fuel_type,drivetrain,vin,listing_name,street_address,apartment,city,state,year,price,mileage,seating_capacity,summary,sellers_notes,is_leather_seats,is_sunroof,is_navigation_system,is_dvd_entertainment_system,is_bluetooth,is_backup_camera,is_remote_start,is_tow_package,user_id,vehicle_make_id,vehicle_model_id,latitude,longitude
1,Crossover,White,Automatic,Gasoline,All-Wheel Drive,,2009 Mazda CX-9 GT,1477 Stuart Blvd,,Windsor,ON,2009,12000,139000,5,"I am selling a white 2009 Mazda CX-9 with 139 000km. It is a fully-loaded Grand Touring Edition with sunroof, heated leather seats, blind spot monitors, Bose sound, bluetooth, cruise contol, a navigation system, and two TV's with DVD players in the rear headrests. The interior and exterior are in very good shape. The car was recently waxed and the paint is in excellent condition. There have been no accidents and I am the second owner (the previous owner was my father, so the vehicle has stayed in the family).",,TRUE,TRUE,TRUE,TRUE,TRUE,TRUE,TRUE,FALSE,1,22,719,45.151053,-79.398193
2,Pickup,White,Automatic,Gasoline,Four-Wheel Drive,,2010 Ford F-150 Lariat,1160 Stuart Blvd,,Windsor,ON,2010,23000,120000,5,"I am selling a 2010 Ford F-150 that is in very good shape. The truck has some great features: leather seats, sunroof, bluetooth, trailer tow package, power seats, power locks, and heated seats. It has been well maintained and has always been kept up to date with synthetic oil changes. It's a clean truck, inside and out.",,TRUE,TRUE,FALSE,FALSE,TRUE,FALSE,TRUE,TRUE,2,10,375,42.241463,-83.075206
3,Sedan,White,Automatic,Gasoline,Front-Wheel Drive,,2016 Dodge Charger HellCat Demo,1547 Grand Marais W,,Windsor,ON,2016,73000,3800,5,"Experience the HellCat 'Viagara'. Guaranteed to get you 'up' and running. The brand new Charger HellCat demo looks awesome, sounds awesome! There is plenty of power to spare: 707hp from a 6.2L supercharged hemi! The Charger is fully loaded with navigation, sunroof, heated / ventilated seats, and much more.",,TRUE,TRUE,TRUE,FALSE,FALSE,FALSE,TRUE,FALSE,3,8,8,42.266456,-83.029265
4,Hatchback,Grey,Automatic,Gasoline,Front-Wheel Drive,,2009 Mercedes B200 Turbo,227 Sunnyside Blvd,,Windsor,ON,2009,7500,99000,5,The Mercedes B200 features a 2.0L turbo engine. It is very clean and has just received new brakes and an oil change.,,TRUE,TRUE,FALSE,FALSE,FALSE,FALSE,FALSE,FALSE,4,23,756,42.227354,-83.098013
5,Hatchback,Red,Automatic,Gasoline,Front-Wheel Drive,,2007 MINI Cooper,2925 McKay Ave,,Windsor,ON,2007,7000,144000,5,The MINI Cooper features a 1.6L engine that uses a timing chain. It is very clean and has just received new brakes and an oil change. All four tires are in good condition,,TRUE,FALSE,FALSE,FALSE,FALSE,FALSE,FALSE,FALSE,5,25,807,42.268694,-83.027733
6,Sedan,Black,Automatic,Gasoline,Front-Wheel Drive,,2013 Mazda 3 Skyactive,9391 Ashland Dr,,Windsor,ON,2013,14000,33000,5,The Mazda 3 Skyactive is a clean car with low mileage. It has heated leather seats and many more features.,,TRUE,FALSE,FALSE,FALSE,FALSE,FALSE,TRUE,FALSE,6,22,721,42.303549,-82.92065
7,Sedan,White,Automatic,Gasoline,Front-Wheel Drive,,2016 Chevrolet Malibu LT,3264 Briarbank Dr,,Windsor,ON,2016,17000,40275,5,"The 2016 Chevrolet Malibu LT features air conditioning, alloy wheels, AM / FM radio, cruise control, floor mats, folding rear seats, power options, stability control, and telescopic and tilt steering. The vehicle is accident free, smoker free, and pet free.",,TRUE,FALSE,FALSE,FALSE,TRUE,FALSE,TRUE,FALSE,7,6,207,42.301574,-82.911024
8,Sedan,Grey,Automatic,Flex Fuel,Front-Wheel Drive,,2011 Chevrolet Malibu LS,2683 Teedie Cres,,Windsor,ON,2011,10000,123000,5,I am selling a grey 2011 Chevrolet Malibu LS for $10 000. It is flex fuel capable and features bluetooth and power options.,,FALSE,FALSE,FALSE,FALSE,TRUE,FALSE,TRUE,FALSE,8,6,207,42.311317,-82.927927
9,Sedan,Black,Automatic,Gasoline,Front-Wheel Drive,,2011 Kia Optima EX,156 Seymour Cres,,Windsor,ON,2011,13500,86685,5,"This vehicle is a five-passenger sedan with alloy wheels. It features a USB port, a touch screen, and an auxiliary input. I am the original owner and it is accident free.",,TRUE,FALSE,FALSE,FALSE,TRUE,TRUE,TRUE,FALSE,9,17,610,42.306401,-82.820426
10,Van,White,Automatic,Gasoline,Front-Wheel Drive,,2015 Chrysler Town & Country Touring,80 Wilder Dr N,,Windsor,ON,2015,22975,57620,7,"I am selling a white Chrysler Town & Country. It is both smoker free and pet free. It has satellite radio, a CD player, an MP3 decoder, and DVD audio. ",,FALSE,FALSE,FALSE,TRUE,TRUE,TRUE,TRUE,FALSE,10,7,281,42.301954,-82.835019
11,SUV,Black,Automatic,Gasoline,All-Wheel Drive,,2010 Lexus RX 350 SUV,3149 Halpin Rd,,Windsor,ON,2010,14800,39000,5,"Features CD player, premium sound, XM satellite, Bluetooth Wireless, keyless start, alloy wheels, and privacy glass",,TRUE,TRUE,FALSE,FALSE,TRUE,TRUE,TRUE,FALSE,11,19,678,42.305134,-82.907669
12,Pickup,Silver,Automatic,Diesel,Four-Wheel Drive,,2003 Chevrolet Duramax 4X4,3161 Mulberry Crt,,Windsor,ON,2003,14000,220000,5,"Has a clean black interior, cloth seats, all-power options, a tow package, tinted windows, an MBRP exhaust, and aftermarket head-lights and tail-lights. All fluids are regularly maintained and there are no scratches on the wheels",,FALSE,FALSE,FALSE,FALSE,FALSE,FALSE,FALSE,TRUE,12,6,223,42.305393,-82.90686
13,Sedan,Red,Automatic,Gasoline,Front-Wheel Drive,,2013 Nissan Versa,3421 Souilliere Dr,,Windsor,ON,2013,6000,58000,5,I am selling a red 2013 Nissan Versa that runs well. It is a great economy car that gets around 37MPG at highway speed.,,FALSE,FALSE,FALSE,FALSE,FALSE,FALSE,TRUE,FALSE,13,27,867,42.30031,-82.905421
14,SUV,Blue,Automatic,Gasoline,Front-Wheel Drive,,2005 Honda CRV SUV,1123 Rendezvous Dr,,Windsor,ON,2005,3950,139400,5,"Features power steering, tilt wheel, AM / FM stereo, CD, air conditioning, power windows, power door locks, cruise control, dual airbags, and steel wheels",,FALSE,FALSE,FALSE,FALSE,FALSE,FALSE,TRUE,FALSE,14,12,492,42.328017,-82.895509
15,Sedan,Red,Automatic,Gasoline,Front-Wheel Drive,,2016 Nissan Altima S,9830 Kenwood Cres,,Windsor,ON,2016,12500,24000,5,"The Nissan Altima has MP3. Bluetooth Wireless, keyless entry, keyless start, backup camera, dual airbags, side airbags, F&R head curtain airbags, and steel wheels. ",,FALSE,FALSE,FALSE,FALSE,TRUE,FALSE,TRUE,FALSE,15,27,838,42.30852,-82.9176
16,Off-Road,Black,Automatic,Gasoline,Four-Wheel Drive,,2015 Jeep Wrangler Rubicon,3210 Halpin Rd,,Windsor,ON,2015,39000,30000,5,"This is as nice of a used Jeep as you can get. It has a lot of extras. I bought it with great intentions and never used it. It has never been off-road and has no damage. I had the following parts added by my dealer: 4in lift and steering correction, high steer drag link, bracket relocation, adjustable rear control arms with spring correction brackets, a one tonne rear drive shaft, 35"" BF Goodrich all-terrain tires with a spare, a warn bumper and winch, and an LED light bar and pods with a pillar guard",,TRUE,TRUE,TRUE,FALSE,TRUE,FALSE,FALSE,TRUE,16,16,600,42.303844,-82.907708
17,Crossover,Green,Automatic,Gasoline,Front-Wheel Drive,,2012 Toyota RAV4,3155 Wachna Dr,,Windsor,ON,2012,13000,120000,5,"We will consider a decent trade or an RV motorhome. It is very clean and has been smoker-, pet-, and child-free. It is well maintained and has been on a maintenance schedule with the company that the owner currently works for.",,FALSE,FALSE,FALSE,FALSE,FALSE,FALSE,TRUE,FALSE,17,35,1001,42.291652,-82.95234
18,Sedan,Blue,Automatic,Gasoline,Front-Wheel Drive,,2007 Subaru Impreza,890 Nova Dr,,Windsor,ON,2007,10000,115500,5,"I am selling my turbocharged, six-speed manual STi. I rarely drive it. It runs great and the interior was swapped out with blue and black leather seats. All the brakes have been redone, except for the front rotors. I just did an oil change and tested the air conditioning.",,TRUE,FALSE,TRUE,FALSE,FALSE,FALSE,FALSE,FALSE,18,33,958,42.251653,-82.98493